[
{
    "id": 1,
    "adresse": "2 rue Alsace-Lorraine",
    "nom": "hôtel de Ciron-Fumel (palais consulaire)",
    "profession_proprietaire": "comte",
    "siecle": "18",
    "lat": 43.59925,
    "lng": 1.44572
  },
  {
    "id": 2,
    "adresse": "7 rue Arts",
    "nom": "hôtel Baichère (hôtel Nolet), tour",
    "profession_proprietaire": "hôtel",
    "siecle": "17",
    "lat": 43.60142,
    "lng": 1.44685
  },
  {
    "id": 3,
    "adresse": "7 rue Arts",
    "nom": "hôtel Nolet disp ?",
    "profession_proprietaire": "trésorier",
    "siecle": "17",
    "lat": 43.60142,
    "lng": 1.44685
  },
  {
    "id": 4,
    "adresse": "10 rue Arts",
    "nom": "hôtel Dupuy-Montaut",
    "profession_proprietaire": "conseiller",
    "siecle": "17",
    "lat": 43.60105,
    "lng": 1.44658
  },
  {
    "id": 5,
    "adresse": "16 rue Arts",
    "nom": "hôtel Ramel",
    "profession_proprietaire": "général",
    "siecle": "18",
    "lat": 43.60068,
    "lng": 1.44645
  },
  {
    "id": 6,
    "adresse": "17 rue Arts",
    "nom": "hôtel Duranti disp ?",
    "profession_proprietaire": "avocat",
    "siecle": "17",
    "lat": 43.60032,
    "lng": 1.44615
  },
  {
    "id": 7,
    "adresse": "1 place Assézat",
    "nom": "hôtel d'Assézat",
    "profession_proprietaire": "pastelier",
    "siecle": "16",
    "lat": 43.60015,
    "lng": 1.44145
  },
  {
    "id": 8,
    "adresse": "3 rue Astorg",
    "nom": "emplacement hôtel de Guillaume Flotte, puis Niquet",
    "profession_proprietaire": "chancelier",
    "siecle": "15",
    "lat": 43.60225,
    "lng": 1.44755
  },
  {
    "id": 9,
    "adresse": "8 rue Aussargues",
    "nom": "hôtel de Raymond",
    "profession_proprietaire": "substitut",
    "siecle": "17",
    "lat": 43.59855,
    "lng": 1.44525
  },
  {
    "id": 10,
    "adresse": "14 rue Baour-Lormian",
    "nom": "hôtel Tivollier",
    "profession_proprietaire": "hôtelier",
    "siecle": "19",
    "lat": 43.60335,
    "lng": 1.44475
  },
  {
    "id": 11,
    "adresse": "12 rue Baronie",
    "nom": "hôtel de Pierre Ducos, Hôtel de Bernard de Sapte",
    "profession_proprietaire": "marchand",
    "siecle": "18",
    "lat": 43.60125,
    "lng": 1.44515
  },
  {
    "id": 12,
    "adresse": "1 square Boulingrin",
    "nom": "hôtel Calespoutrat",
    "profession_proprietaire": "propriétaire",
    "siecle": "20",
    "lat": 43.59545,
    "lng": 1.45265
  },
  {
    "id": 13,
    "adresse": "8 rue Bouquières",
    "nom": "hôtel de Puivert",
    "profession_proprietaire": "magistrat",
    "siecle": "18",
    "lat": 43.59925,
    "lng": 1.44685
  },
  {
    "id": 14,
    "adresse": "19 place Bourse",
    "nom": "ancien hôtel de la Bourse des marchands",
    "profession_proprietaire": "institut",
    "siecle": "17",
    "lat": 43.60105,
    "lng": 1.44355
  },
  {
    "id": 15,
    "adresse": "26 place Bourse",
    "nom": "emplacement tour de Najac, puis l'hôtel de Bastard",
    "profession_proprietaire": "président",
    "siecle": "18",
    "lat": 43.60155,
    "lng": 1.44335
  },
  {
    "id": 16,
    "adresse": "15 rue Bourse",
    "nom": "hôtel de Nupces",
    "profession_proprietaire": "président",
    "siecle": "18",
    "lat": 43.60095,
    "lng": 1.44315
  },
  {
    "id": 17,
    "adresse": "16 rue Bourse",
    "nom": "hôtel des Quatre-Saisons",
    "profession_proprietaire": "àVoir",
    "siecle": "18",
    "lat": 43.60085,
    "lng": 1.44335
  },
  {
    "id": 18,
    "adresse": "20 rue Bourse",
    "nom": "hôtel Delfau, tour",
    "profession_proprietaire": "pastelier",
    "siecle": "15",
    "lat": 43.60065,
    "lng": 1.44355
  },
  {
    "id": 19,
    "adresse": "5 rue Boyer-Fonfrède",
    "nom": "hôtel de Gayssion, tour",
    "profession_proprietaire": "marchand",
    "siecle": "16",
    "lat": 43.60135,
    "lng": 1.44025
  },
  {
    "id": 20,
    "adresse": "angle rue Brunière",
    "nom": "disp : hôtel de Montmorency-Laval : angle",
    "profession_proprietaire": "veuve",
    "siecle": "18",
    "lat": 43.59625,
    "lng": 1.44515
  },
  {
    "id": 21,
    "adresse": "7 rue Canard",
    "nom": "hôtel Rossel et hôtel Caussade",
    "profession_proprietaire": "avocat",
    "siecle": "17",
    "lat": 43.59685,
    "lng": 1.44395
  },
  {
    "id": 22,
    "adresse": "8 rue Canard",
    "nom": "hôtel Vendange de Malepeyre",
    "profession_proprietaire": "conseiller",
    "siecle": "17",
    "lat": 43.59692,
    "lng": 1.44415
  },
  {
    "id": 23,
    "adresse": "2 rue Cantegril",
    "nom": "hôtel de Bertier",
    "profession_proprietaire": "conseiller",
    "siecle": "17",
    "lat": 43.60205,
    "lng": 1.44712
  },
  {
    "id": 24,
    "adresse": "11 rue Cantegril",
    "nom": "tour Cantegril",
    "profession_proprietaire": "àVoir",
    "siecle": "15",
    "lat": 43.60228,
    "lng": 1.44805
  },
  {
    "id": 25,
    "adresse": "10 place Capitole",
    "nom": "hôtel Puget",
    "profession_proprietaire": "capitoul",
    "siecle": "17",
    "lat": 43.60455,
    "lng": 1.44312
  },
  {
    "id": 26,
    "adresse": "38 place Carmes",
    "nom": "hôtel Marty (hôtel Sabatier)",
    "profession_proprietaire": "conseiller",
    "siecle": "16",
    "lat": 43.59615,
    "lng": 1.44455
  },
  {
    "id": 27,
    "adresse": "4 rue Chaîne",
    "nom": "hôtel particulier",
    "profession_proprietaire": "àVoir",
    "siecle": "18",
    "lat": 43.60535,
    "lng": 1.44215
  },
  {
    "id": 28,
    "adresse": "4 rue Chalande",
    "nom": "hôtel Bolé, Tour Séguy",
    "profession_proprietaire": "marchand",
    "siecle": "15",
    "lat": 43.60205,
    "lng": 1.44325
  },
  {
    "id": 29,
    "adresse": "53 rue Châlets",
    "nom": "hôtel, villa, maison",
    "profession_proprietaire": "propriétaire",
    "siecle": "20",
    "lat": 43.61415,
    "lng": 1.44485
  },
  {
    "id": 30,
    "adresse": "16 rue Changes",
    "nom": "hôtel Astorg : escalier en bois, tour",
    "profession_proprietaire": "capitoul",
    "siecle": "16",
    "lat": 43.60065,
    "lng": 1.44415
  },
  {
    "id": 31,
    "adresse": "16 rue Changes",
    "nom": "hôtel de Saint-Germain",
    "profession_proprietaire": "capitoul",
    "siecle": "16",
    "lat": 43.60065,
    "lng": 1.44415
  },
  {
    "id": 32,
    "adresse": "17 rue Changes",
    "nom": "Hôtel de Boscredon",
    "profession_proprietaire": "capitoul",
    "siecle": "17",
    "lat": 43.60075,
    "lng": 1.44385
  },
  {
    "id": 33,
    "adresse": "19 rue Changes",
    "nom": "hôtel et tour de Brucelles",
    "profession_proprietaire": "capitoul",
    "siecle": "16",
    "lat": 43.60055,
    "lng": 1.44395
  },
  {
    "id": 34,
    "adresse": "20 rue Changes",
    "nom": "hôtel Delpech, tour",
    "profession_proprietaire": "pastelier",
    "siecle": "15",
    "lat": 43.60035,
    "lng": 1.44425
  },
  {
    "id": 35,
    "adresse": "22 rue Changes",
    "nom": "hôtel Labonne",
    "profession_proprietaire": "marchand",
    "siecle": "17",
    "lat": 43.60025,
    "lng": 1.44435
  },
  {
    "id": 36,
    "adresse": "27 rue Changes",
    "nom": "hôtel Comère",
    "profession_proprietaire": "capitoul",
    "siecle": "17",
    "lat": 43.59985,
    "lng": 1.44425
  },
  {
    "id": 37,
    "adresse": "30 rue Changes",
    "nom": "hôtel Prohenques",
    "profession_proprietaire": "marchand",
    "siecle": "15",
    "lat": 43.59955,
    "lng": 1.44455
  },
  {
    "id": 38,
    "adresse": "31 rue Changes",
    "nom": "hôtel et tour de Delcros-Lancefoc",
    "profession_proprietaire": "marchand",
    "siecle": "15",
    "lat": 43.59945,
    "lng": 1.44445
  },
  {
    "id": 39,
    "adresse": "4 rue Coffres",
    "nom": "hôtel Darquier",
    "profession_proprietaire": "receveur",
    "siecle": "18",
    "lat": 43.59775,
    "lng": 1.44495
  },
  {
    "id": 40,
    "adresse": "11 rue Coffres",
    "nom": "hôtel Bousquet",
    "profession_proprietaire": "procureur",
    "siecle": "18",
    "lat": 43.59765,
    "lng": 1.44525
  },
  {
    "id": 41,
    "adresse": "8 rue Coq d'Inde",
    "nom": "hôtel Segla",
    "profession_proprietaire": "capitoul",
    "siecle": "17",
    "lat": 43.59865,
    "lng": 1.44395
  },
  {
        "id": 42,
        "adresse": "6 rue Couteliers",
        "nom": "hôtel Aliès",
        "profession_proprietaire": "capitoul",
        "siecle": "16",
        "lat": 43.59972,
        "lng": 1.44215
    },
    {
        "id": 43,
        "adresse": "26 rue Couteliers",
        "nom": "hôtel de Reste",
        "profession_proprietaire": "marchand",
        "siecle": "15",
        "lat": 43.59858,
        "lng": 1.44185
    },
    {
        "id": 44,
        "adresse": "44 rue Couteliers",
        "nom": "Hôtel Pierre Barassy",
        "profession_proprietaire": "capitoul",
        "siecle": "18",
        "lat": 43.59755,
        "lng": 1.44155
    },
    {
        "id": 45,
        "adresse": "46 rue Couteliers",
        "nom": "hôtel Dassier",
        "profession_proprietaire": "graveur",
        "siecle": "18",
        "lat": 43.59735,
        "lng": 1.44145
    },
    {
        "id": 46,
        "adresse": "6 rue Croix-Baragnon",
        "nom": "hôtel de Ciron-Fumel",
        "profession_proprietaire": "mortier",
        "siecle": "17",
        "lat": 43.60015,
        "lng": 1.44685
    },
    {
        "id": 47,
        "adresse": "10 rue Croix-Baragnon",
        "nom": "hôtel Castellane, Arnaud Faure, disp. (de Campaigno)",
        "profession_proprietaire": "évêque",
        "siecle": "18",
        "lat": 43.60025,
        "lng": 1.44735
    },
    {
        "id": 48,
        "adresse": "14 rue Croix-Baragnon",
        "nom": "hôtel de Bonfontan",
        "profession_proprietaire": "capitoul",
        "siecle": "18",
        "lat": 43.60035,
        "lng": 1.44785
    },
    {
        "id": 49,
        "adresse": "15 rue Croix-Baragnon",
        "nom": "Maison romano-gothique",
        "profession_proprietaire": "propriétaire",
        "siecle": "14",
        "lat": 43.60018,
        "lng": 1.44775
    },
    {
        "id": 50,
        "adresse": "19 rue Croix-Baragnon",
        "nom": "hôtel Beringuier-Bonnefoy, tour",
        "profession_proprietaire": "litographe",
        "siecle": "16",
        "lat": 43.60025,
        "lng": 1.44815
    },
    {
        "id": 51,
        "adresse": "24 rue Croix-Baragnon",
        "nom": "hôtel Sahuqué",
        "profession_proprietaire": "professeur",
        "siecle": "19",
        "lat": 43.60045,
        "lng": 1.44875
    },
    {
        "id": 52,
        "adresse": "27 rue Croix-Baragnon",
        "nom": "hôtel Thomas de Montval",
        "profession_proprietaire": "minotier",
        "siecle": "20",
        "lat": 43.60035,
        "lng": 1.44915
    },
    {
        "id": 53,
        "adresse": "41 rue Croix-Baragnon",
        "nom": "hôtel de Bonfontan",
        "profession_proprietaire": "capitoul",
        "siecle": "18",
        "lat": 43.60065,
        "lng": 1.45045
    },
    {
        "id": 54,
        "adresse": "1bis rue Cuves-Saint-Sernin",
        "nom": "anciens greniers du Chapitre Saint-Sernin",
        "profession_proprietaire": "abbaye",
        "siecle": "16",
        "lat": 43.60885,
        "lng": 1.44145
    },
    {
        "id": 55,
        "adresse": "2 rue Dalbade",
        "nom": "emplacement de l'hôtel de Rivière",
        "profession_proprietaire": "bourgeois",
        "siecle": "16",
        "lat": 43.60012,
        "lng": 1.44235
    },
    {
        "id": 56,
        "adresse": "5 rue Dalbade",
        "nom": "hôtel Masuyer",
        "profession_proprietaire": "président",
        "siecle": "15",
        "lat": 43.59965,
        "lng": 1.44255
    },
    {
        "id": 57,
        "adresse": "7 rue Dalbade",
        "nom": "hôtel de Saint-Pierre, puis de Bastard",
        "profession_proprietaire": "capitoul",
        "siecle": "15",
        "lat": 43.59935,
        "lng": 1.44265
    },
    {
        "id": 58,
        "adresse": "8 rue Dalbade",
        "nom": "hôtel particulier",
        "profession_proprietaire": "àVoir",
        "siecle": "16",
        "lat": 43.59915,
        "lng": 1.44235
    },
    {
        "id": 59,
        "adresse": "11 rue Dalbade",
        "nom": "hôtel particulier, Notre-Dame du Calvaire",
        "profession_proprietaire": "àVoir",
        "siecle": "18",
        "lat": 43.59865,
        "lng": 1.44265
    },
    {
        "id": 60,
        "adresse": "13 rue Dalbade",
        "nom": "Hôtel Le Masuyer, couvent Visitation",
        "profession_proprietaire": "propriétaire",
        "siecle": "17",
        "lat": 43.59835,
        "lng": 1.44275
    },
    {
        "id": 61,
        "adresse": "15 rue Dalbade",
        "nom": "Hôtel de Béarn, couvent Visitation",
        "profession_proprietaire": "propriétaire",
        "siecle": "17",
        "lat": 43.59805,
        "lng": 1.44285
    },
    {
        "id": 62,
        "adresse": "16 rue Dalbade",
        "nom": "hôtel de Villepigne",
        "profession_proprietaire": "capitoul",
        "siecle": "17",
        "lat": 43.59785,
        "lng": 1.44245
    },
    {
        "id": 63,
        "adresse": "18 rue Dalbade",
        "nom": "hôtel de Montbel (hôtel Cazals)",
        "profession_proprietaire": "conseiller",
        "siecle": "18",
        "lat": 43.59755,
        "lng": 1.44245
    },
    {
        "id": 64,
        "adresse": "22 rue Dalbade",
        "nom": "hôtel de Felzins (ou de Molinier, Hôtel de Cathelan)",
        "profession_proprietaire": "conseiller",
        "siecle": "16",
        "lat": 43.59657,
        "lng": 1.44253
    },
    {
        "id": 65,
        "adresse": "23 rue Dalbade",
        "nom": "hôtel Bajuly",
        "profession_proprietaire": "conseiller",
        "siecle": "17",
        "lat": 43.59725,
        "lng": 1.44225
    },
    {
        "id": 66,
        "adresse": "25 rue Dalbade",
        "nom": "hôtel Clari ou de pierre (Bagis)",
        "profession_proprietaire": "président",
        "siecle": "17",
        "lat": 43.59700,
        "lng": 1.44222
    },
    {
        "id": 67,
        "adresse": "25 rue Dalbade",
        "nom": "hôtel de Bagis (hôtel Daguin)",
        "profession_proprietaire": "président",
        "siecle": "16",
        "lat": 43.59700,
        "lng": 1.44222
    },
    {
        "id": 68,
        "adresse": "25 rue Dalbade",
        "nom": "Hôtel de Pierre-de-Ruppe, tour",
        "profession_proprietaire": "capitoul",
        "siecle": "17",
        "lat": 43.59700,
        "lng": 1.44222
    },
    {
        "id": 69,
        "adresse": "29 rue Dalbade",
        "nom": "hôtel de Massas (ou hôtel d'Aldeguier)",
        "profession_proprietaire": "conseiller",
        "siecle": "16",
        "lat": 43.59665,
        "lng": 1.44225
    },
    {
        "id": 70,
        "adresse": "30 rue Dalbade",
        "nom": "hôtel de Saint-Jean XVII°",
        "profession_proprietaire": "religieux",
        "siecle": "17",
        "lat": 43.59662,
        "lng": 1.44255
    },
    {
        "id": 71,
        "adresse": "31 rue Dalbade",
        "nom": "hôtel de La Mamye",
        "profession_proprietaire": "conseiller",
        "siecle": "16",
        "lat": 43.59645,
        "lng": 1.44215
    },
    {
        "id": 72,
        "adresse": "32 rue Dalbade",
        "nom": "hôtel Saint-Jean",
        "profession_proprietaire": "ordre",
        "siecle": "17",
        "lat": 43.59635,
        "lng": 1.44245
    },
    {
        "id": 73,
        "adresse": "37 rue Dalbade",
        "nom": "hôtel Bruni, tour",
        "profession_proprietaire": "religieux",
        "siecle": "16",
        "lat": 43.59595,
        "lng": 1.44215
    },
    {
        "id": 74,
        "adresse": "3 rue Darquier",
        "nom": "hôtel de Clergues",
        "profession_proprietaire": "chapelier",
        "siecle": "18",
        "lat": 43.59615,
        "lng": 1.44525
    },
    {
        "id": 75,
        "adresse": "5 rue Darquier",
        "nom": "hôtel particulier",
        "profession_proprietaire": "àVoir",
        "siecle": "15",
        "lat": 43.59612,
        "lng": 1.44555
    },
    {
        "id": 76,
        "adresse": "8 rue Darquier",
        "nom": "hôtel Darquier",
        "profession_proprietaire": "astronome",
        "siecle": "18",
        "lat": 43.59628,
        "lng": 1.44575
    },
    {
        "id": 77,
        "adresse": "10 rue Darquier",
        "nom": "hôtel de Boysset",
        "profession_proprietaire": "trésorier",
        "siecle": "16",
        "lat": 43.59635,
        "lng": 1.44595
    },
    {
        "id": 78,
        "adresse": "11 rue Darquier",
        "nom": "hôtel de Quinquiry",
        "profession_proprietaire": "avocat",
        "siecle": "16",
        "lat": 43.59625,
        "lng": 1.44605
    },
    {
        "id": 79,
        "adresse": "12, 14 rue Darquier",
        "nom": "hôtel Fajole",
        "profession_proprietaire": "conseiller",
        "siecle": "18",
        "lat": 43.59638,
        "lng": 1.44625
    },
    {
        "id": 80,
        "adresse": "1 place Daurade",
        "nom": "hôtel Fontfrède (dans prieuré Daurade)",
        "profession_proprietaire": "marchand",
        "siecle": "18",
        "lat": 43.60055,
        "lng": 1.44025
    },
    {
        "id": 81,
        "adresse": "17 place Daurade",
        "nom": "portail de l'hôtel Vesa (détruit)",
        "profession_proprietaire": "conseiller",
        "siecle": "16",
        "lat": 43.60095,
        "lng": 1.44085
    },
    {
        "id": 82,
        "adresse": "2 allées Demoiselles",
        "nom": "maison Valette",
        "profession_proprietaire": "propriétaire",
        "siecle": "19",
        "lat": 43.59355,
        "lng": 1.45425
    },
    {
        "id": 83,
        "adresse": "4 allées Demoiselles",
        "nom": "hôtel, villa, maison",
        "profession_proprietaire": "propriétaire",
        "siecle": "19",
        "lat": 43.59325,
        "lng": 1.45445
    },
    {
        "id": 84,
        "adresse": "13 allées Demoiselles",
        "nom": "hôtel, villa, maison",
        "profession_proprietaire": "propriétaire",
        "siecle": "19",
        "lat": 43.59255,
        "lng": 1.45525
    },
    {
        "id": 85,
        "adresse": "15 allées Demoiselles",
        "nom": "hôtel, villa, maison",
        "profession_proprietaire": "propriétaire",
        "siecle": "19",
        "lat": 43.59225,
        "lng": 1.45545
    },
    {
        "id": 86,
        "adresse": "35 allées Demoiselles",
        "nom": "villa Saphir",
        "profession_proprietaire": "propriétaire",
        "siecle": "19",
        "lat": 43.58985,
        "lng": 1.45725
    },
    {
        "id": 87,
        "adresse": "41 allées Demoiselles",
        "nom": "hôtel, villa, maison",
        "profession_proprietaire": "propriétaire",
        "siecle": "19",
        "lat": 43.58925,
        "lng": 1.45775
    },
    {
        "id": 88,
        "adresse": "43 allées Demoiselles",
        "nom": "hôtel, villa, maison",
        "profession_proprietaire": "propriétaire",
        "siecle": "19",
        "lat": 43.58905,
        "lng": 1.45795
    },
    {
        "id": 89,
        "adresse": "45 allées Demoiselles",
        "nom": "villa de la Tourelle",
        "profession_proprietaire": "propriétaire",
        "siecle": "19",
        "lat": 43.58885,
        "lng": 1.45815
    },
    {
        "id": 90,
        "adresse": "47 allées Demoiselles",
        "nom": "hôtel, villa, maison",
        "profession_proprietaire": "propriétaire",
        "siecle": "19",
        "lat": 43.58865,
        "lng": 1.45835
    },
    {
        "id": 91,
        "adresse": "52 allées Demoiselles",
        "nom": "hôtel, villa, maison",
        "profession_proprietaire": "propriétaire",
        "siecle": "19",
        "lat": 43.58815,
        "lng": 1.45895
    },
    {
        "id": 92,
        "adresse": "37-39 allées Demoiselles",
        "nom": "villa des Violettes",
        "profession_proprietaire": "propriétaire",
        "siecle": "19",
        "lat": 43.58955,
        "lng": 1.45745
    },
    {
        "id": 93,
        "adresse": "1 rue Deville",
        "nom": "derrière : hôtel Cambolas disp ?",
        "profession_proprietaire": "président",
        "siecle": "17",
        "lat": 43.60455,
        "lng": 1.44045
    },
    {
        "id": 94,
        "adresse": "23 rue Deville",
        "nom": "hôtel de Villeneuve",
        "profession_proprietaire": "lithographe",
        "siecle": "19",
        "lat": 43.60525,
        "lng": 1.43885
    },
    {
        "id": 95,
        "adresse": "1 rue Dumay",
        "nom": "hôtel Darbou",
        "profession_proprietaire": "conseiller",
        "siecle": "17",
        "lat": 43.60155,
        "lng": 1.44495
    },
    {
        "id": 96,
        "adresse": "7 rue Dumay",
        "nom": "hôtel Dumay",
        "profession_proprietaire": "capitoul",
        "siecle": "16",
        "lat": 43.60185,
        "lng": 1.44475
    },
    {
        "id": 97,
        "adresse": "18 place Dupuy",
        "nom": "hôtel de Mazères",
        "profession_proprietaire": "distillateur",
        "siecle": "16",
        "lat": 43.60065,
        "lng": 1.45345
    },
    {
        "id": 98,
        "adresse": "1 rue Echarpe",
        "nom": "Tour de Bénézit, hôtel Ysalguier",
        "profession_proprietaire": "capitoul",
        "siecle": "14",
        "lat": 43.60045,
        "lng": 1.44315
    },
    {
        "id": 99,
        "adresse": "3 rue Echarpe",
        "nom": "hôtel de l'Écharpe",
        "profession_proprietaire": "capitoul",
        "siecle": "20",
        "lat": 43.60035,
        "lng": 1.44295
    },
    {
        "id": 100,
        "adresse": "1 rue Espinasse",
        "nom": "hôtel Mansencal, tour (hôtel Sevin-Mansencal)",
        "profession_proprietaire": "président",
        "siecle": "16",
        "lat": 43.59785,
        "lng": 1.44555
    },
    {
        "id": 101,
        "adresse": "1 rue Espinasse",
        "nom": "hôtel Sevin-Mansencal",
        "profession_proprietaire": "veuve",
        "siecle": "18",
        "lat": 43.59785,
        "lng": 1.44555
    },
    {
        "id": 102,
        "adresse": "4 rue Espinasse",
        "nom": "hôtel Tournier disp ?",
        "profession_proprietaire": "conseiller",
        "siecle": "18",
        "lat": 43.59795,
        "lng": 1.44515
    },
    {
        "id": 103,
        "adresse": "5 rue Espinasse",
        "nom": "hôtel Gach disp ? (hôtel Gach)",
        "profession_proprietaire": "président",
        "siecle": "17",
        "lat": 43.59775,
        "lng": 1.44515
    },
    {
        "id": 104,
        "adresse": "3 rue Esquile",
        "nom": "hôtel de Caylus",
        "profession_proprietaire": "conseiller",
        "siecle": "18",
        "lat": 43.60535,
        "lng": 1.44185
    },
    {
        "id": 105,
        "adresse": "5 rue Esquile",
        "nom": "hôtel de Caylus XVIII°",
        "profession_proprietaire": "conseiller",
        "siecle": "18",
        "lat": 43.60545,
        "lng": 1.44165
    },
    {
        "id": 106,
        "adresse": "12 place Esquirol",
        "nom": "hôtel Desplats ou Palaminy",
        "profession_proprietaire": "mortier",
        "siecle": "17",
        "lat": 43.60065,
        "lng": 1.44465
    },
    {
        "id": 107,
        "adresse": "1 rue Féral",
        "nom": "hôtel de Blaise d'Auriol (ou Féral)",
        "profession_proprietaire": "régent",
        "siecle": "16",
        "lat": 43.59665,
        "lng": 1.44685
    },
    {
        "id": 108,
        "adresse": "5 rue Fermat",
        "nom": "hôtel de Malenfant (ou de Panat)",
        "profession_proprietaire": "juge",
        "siecle": "17",
        "lat": 43.59945,
        "lng": 1.44785
    },
    {
        "id": 109,
        "adresse": "11 rue Fermat",
        "nom": "hôtel Roquelaine",
        "profession_proprietaire": "pépiniériste",
        "siecle": "18",
        "lat": 43.59915,
        "lng": 1.44825
    },
    {
        "id": 110,
        "adresse": "1, 3 rue Fermat",
        "nom": "hôtel Sevin-Mansencal",
        "profession_proprietaire": "veuve",
        "siecle": "16",
        "lat": 43.59965,
        "lng": 1.44755
    },
    {
        "id": 111,
        "adresse": "11 rue Filatiers",
        "nom": "hôtel Montluc",
        "profession_proprietaire": "gouverneur",
        "siecle": "17",
        "lat": 43.59985,
        "lng": 1.44395
    },
    {
        "id": 112,
        "adresse": "1 rue Fleurs",
        "nom": "ancien hôtel Monnaie",
        "profession_proprietaire": "monnaie",
        "siecle": "13",
        "lat": 43.59525,
        "lng": 1.44355
    },
    {
        "id": 113,
        "adresse": "13 rue Fleurs",
        "nom": "Hôtel Fajole",
        "profession_proprietaire": "conseiller",
        "siecle": "18",
        "lat": 43.59455,
        "lng": 1.44365
    },
    {
        "id": 114,
        "adresse": "22 rue Fleurs",
        "nom": "hôtel de la Sénéchausée",
        "profession_proprietaire": "sénéchal",
        "siecle": "16",
        "lat": 43.59425,
        "lng": 1.44395
    },
    {
        "id": 115,
        "adresse": "15 rue Fonderie",
        "nom": "hôtel de Margastaud",
        "profession_proprietaire": "capitoul",
        "siecle": "18",
        "lat": 43.59495,
        "lng": 1.44285
    },
    {
        "id": 116,
        "adresse": "1 rue Fourtanier",
        "nom": "hôtel Viguerie",
        "profession_proprietaire": "chirurgien",
        "siecle": "19",
        "lat": 43.60285,
        "lng": 1.44895
    },
    {
        "id": 117,
        "adresse": "1 rue Furgole",
        "nom": "hôtel de Lézèque ou Furgole",
        "profession_proprietaire": "carrosses",
        "siecle": "17",
        "lat": 43.59485,
        "lng": 1.44425
    },
    {
        "id": 118,
        "adresse": "1 rue Gambetta",
        "nom": "hôtel Bernuy",
        "profession_proprietaire": "pastelier",
        "siecle": "16",
        "lat": 43.60335,
        "lng": 1.44115
    },
    {
        "id": 119,
        "adresse": "35 rue Gambetta",
        "nom": "hôtel de Campunaud",
        "profession_proprietaire": "capitoul",
        "siecle": "19",
        "lat": 43.60385,
        "lng": 1.43985
    },
    {
        "id": 120,
        "adresse": "43 rue Gambetta",
        "nom": "hôtel Maleprade",
        "profession_proprietaire": "capitoul",
        "siecle": "17",
        "lat": 43.60405,
        "lng": 1.43925
    },
    {
        "id": 121,
        "adresse": "58 rue Gambetta",
        "nom": "tourelles collège Ste-Catherine",
        "profession_proprietaire": "collège",
        "siecle": "14",
        "lat": 43.60425,
        "lng": 1.43855
    },
    {
        "id": 122,
        "adresse": "25 rue Gambetta",
        "nom": "hôtel Saint-Étienne",
        "profession_proprietaire": "avocat",
        "siecle": "17",
        "lat": 43.60365,
        "lng": 1.44025
    },
    {
        "id": 123,
        "adresse": "23 rue Homme Armé",
        "nom": "hôtel Galien (ou Margastaud)",
        "profession_proprietaire": "capitoul",
        "siecle": "17",
        "lat": 43.59765,
        "lng": 1.44395
    },
    {
        "id": 124,
        "adresse": "15 rue Japon",
        "nom": "hôtel Labit",
        "profession_proprietaire": "commerçant",
        "siecle": "20",
        "lat": 43.59085,
        "lng": 1.45825
    },
    {
        "id": 125,
        "adresse": "16 rue Joseph-Bosc",
        "nom": "Dépendance de l'hôtel Baylet",
        "profession_proprietaire": "entrepreneur",
        "siecle": "19",
        "lat": 43.60725,
        "lng": 1.43655
    },
    {
        "id": 126,
        "adresse": "2 rue Joutx Aigues",
        "nom": "hôtel de Rességuier",
        "profession_proprietaire": "conseiller",
        "siecle": "18",
        "lat": 43.59765,
        "lng": 1.44295
    },
    {
        "id": 127,
        "adresse": "2 rue Joutx Aigues",
        "nom": "tour Bertrand de Rességuier",
        "profession_proprietaire": "conseiller",
        "siecle": "16",
        "lat": 43.59765,
        "lng": 1.44295
    },
    {
        "id": 128,
        "adresse": "3 rue Joutx Aigues",
        "nom": "hôtel Sapte disp ?",
        "profession_proprietaire": "mortier",
        "siecle": "18",
        "lat": 43.59755,
        "lng": 1.44315
    },
    {
        "id": 129,
        "adresse": "10 rue Languedoc",
        "nom": "hôtel Raymond d'Aymeric",
        "profession_proprietaire": "capitoul",
        "siecle": "17",
        "lat": 43.59765,
        "lng": 1.44525
    },
    {
        "id": 130,
        "adresse": "16 rue Languedoc",
        "nom": "hôtel Rabaudy de Paucy",
        "profession_proprietaire": "conseiller",
        "siecle": "17",
        "lat": 43.59825,
        "lng": 1.44525
    },
    {
        "id": 131,
        "adresse": "26 rue Languedoc",
        "nom": "hôtel de Blaise d'Auriol",
        "profession_proprietaire": "régent",
        "siecle": "16",
        "lat": 43.59895,
        "lng": 1.44525
    },
    {
        "id": 132,
        "adresse": "30 rue Languedoc",
        "nom": "Hôtel d'Ouvrier, tour de Guillaume Carreri",
        "profession_proprietaire": "port",
        "siecle": "15",
        "lat": 43.59915,
        "lng": 1.44525
    },
    {
        "id": 133,
        "adresse": "34 rue Languedoc",
        "nom": "hôtel de Puymaurin (hôtel Labat de Mourlens)",
        "profession_proprietaire": "conseiller",
        "siecle": "17",
        "lat": 43.59935,
        "lng": 1.44525
    },
    {
        "id": 134,
        "adresse": "36 rue Languedoc",
        "nom": "hôtel Aussargues (hôtel de Lancrau)",
        "profession_proprietaire": "conseiller",
        "siecle": "17",
        "lat": 43.59955,
        "lng": 1.44525
    },
    {
        "id": 135,
        "adresse": "36 rue Languedoc",
        "nom": "hôtel Béringuier Maynier (Vieux-Raisin, de Lasbordes)",
        "profession_proprietaire": "capitoul",
        "siecle": "15",
        "lat": 43.59955,
        "lng": 1.44525
    },
    {
        "id": 136,
        "adresse": "46 rue Languedoc",
        "nom": "hôtel Antonin (hôtel des Pins)",
        "profession_proprietaire": "évêque",
        "siecle": "16",
        "lat": 43.60065,
        "lng": 1.44535
    },
    {
        "id": 137,
        "adresse": "1bis rue Languedoc",
        "nom": "tour du capitoul de Ruppe",
        "profession_proprietaire": "capitoul",
        "siecle": "16",
        "lat": 43.59685,
        "lng": 1.44525
    },
    {
        "id": 138,
        "adresse": "75 bd Lazare Carnot",
        "nom": "Immeuble dit Hôtel Modèle, disp ?",
        "profession_proprietaire": "propriétaire",
        "siecle": "19",
        "lat": 43.60535,
        "lng": 1.45025
    },
    {
        "id": 139,
        "adresse": "3 rue Lieutenant-Pelissier",
        "nom": "Hôtel Caulet-Resseguier (ou hôtel Duranti)",
        "profession_proprietaire": "conseiller",
        "siecle": "17",
        "lat": 43.60335,
        "lng": 1.44685
    },
    {
        "id": 140,
        "adresse": "1 rue Lois",
        "nom": "hôtel Grand Balcon",
        "profession_proprietaire": "hôtel",
        "siecle": "19",
        "lat": 43.60455,
        "lng": 1.44295
    },
    {
        "id": 141,
        "adresse": "3 rue Madeleine",
        "nom": "hôtel Tornié de Vaillac",
        "profession_proprietaire": "président",
        "siecle": "16",
        "lat": 43.59855,
        "lng": 1.44425
    },
    {
        "id": 142,
        "adresse": "3 rue Madeleine",
        "nom": "hôtel Tournoër ou Tournié disp ? (Tornié-Barrassy)",
        "profession_proprietaire": "président",
        "siecle": "18",
        "lat": 43.59855,
        "lng": 1.44425
    },
    {
        "id": 143,
        "adresse": "4 rue Madeleine",
        "nom": "hôtel Barravy",
        "profession_proprietaire": "conseiller",
        "siecle": "16",
        "lat": 43.59845,
        "lng": 1.44445
    },
    {
        "id": 144,
        "adresse": "3 rue Mage",
        "nom": "hôtel d'Espie (ou Courtois de Viçoze)",
        "profession_proprietaire": "comte",
        "siecle": "18",
        "lat": 43.59865,
        "lng": 1.44665
    },
    {
        "id": 145,
        "adresse": "11 rue Mage",
        "nom": "hôtel d'Orbessan",
        "profession_proprietaire": "conseiller",
        "siecle": "17",
        "lat": 43.59825,
        "lng": 1.44685
    },
    {
        "id": 146,
        "adresse": "16 rue Mage",
        "nom": "hôtel Ayguevives (hôtel Bernard)",
        "profession_proprietaire": "avocat",
        "siecle": "18",
        "lat": 43.59805,
        "lng": 1.44735
    },
    {
        "id": 147,
        "adresse": "18 rue Mage",
        "nom": "Hôtel Reynier",
        "profession_proprietaire": "conseiller",
        "siecle": "18",
        "lat": 43.59795,
        "lng": 1.44745
    },
    {
        "id": 148,
        "adresse": "20 rue Mage",
        "nom": "hôtel Davasse",
        "profession_proprietaire": "capitoul",
        "siecle": "18",
        "lat": 43.59785,
        "lng": 1.44755
    },
    {
        "id": 149,
        "adresse": "20 rue Mage",
        "nom": "hôtel Durasse (puis hôtel Davasse, tour Reynier)",
        "profession_proprietaire": "capitoul",
        "siecle": "15",
        "lat": 43.59785,
        "lng": 1.44755
    },
    {
        "id": 150,
        "adresse": "32 rue Mage",
        "nom": "hôtel Cassan : statue",
        "profession_proprietaire": "conseiller",
        "siecle": "19",
        "lat": 43.59725,
        "lng": 1.44785
    },
    {
        "id": 151,
        "adresse": "25 rue Malaret",
        "nom": "emplacement de l'hôtel d'Hautpoul, petit séminaire",
        "profession_proprietaire": "comte",
        "siecle": "18",
        "lat": 43.60155,
        "lng": 1.45185
    },
    {
        "id": 152,
        "adresse": "29 rue Malaret",
        "nom": "emplacement de l'hôtel de Luppé",
        "profession_proprietaire": "noble",
        "siecle": "17",
        "lat": 43.60195,
        "lng": 1.45225
    },
    {
        "id": 153,
        "adresse": "1 rue Malcousinat",
        "nom": "hôtel de Bénézit",
        "profession_proprietaire": "président",
        "siecle": "16",
        "lat": 43.60085,
        "lng": 1.44315
    },
    {
        "id": 154,
        "adresse": "11 rue Malcousinat",
        "nom": "Hôtel de Boysson-Cheverry",
        "profession_proprietaire": "capitoul",
        "siecle": "15",
        "lat": 43.60115,
        "lng": 1.44365
    },
    {
        "id": 155,
        "adresse": "13 rue Malcousinat",
        "nom": "hôtel Boscredon",
        "profession_proprietaire": "marchand",
        "siecle": "15",
        "lat": 43.60125,
        "lng": 1.44385
    },
    {
        "id": 156,
        "adresse": "3 rue Maletache",
        "nom": "hôtel des Comère",
        "profession_proprietaire": "capitoul",
        "siecle": "17",
        "lat": 43.59915,
        "lng": 1.44435
    },
    {
        "id": 157,
        "adresse": "37 rue Marchands",
        "nom": "hôtel de Bertier",
        "profession_proprietaire": "capitoul",
        "siecle": "16",
        "lat": 43.60025,
        "lng": 1.44385
    },
    {
        "id": 158,
        "adresse": "28 rue Marchands",
        "nom": "Hôtel des Marchands ou des cariatides",
        "profession_proprietaire": "àVoir",
        "siecle": "19",
        "lat": 43.60015,
        "lng": 1.44425
    },
    {
        "id": 159,
        "adresse": "2 rue Martyrs-de-la-Libération",
        "nom": "hôtel Besaucèle",
        "profession_proprietaire": "propriétaire",
        "siecle": "20",
        "lat": 43.59785,
        "lng": 1.45015
    },
    {
        "id": 160,
        "adresse": "28bis rue Martyrs-de-la-Libération",
        "nom": "hôtel Verzanobre",
        "profession_proprietaire": "propriétaire",
        "siecle": "20",
        "lat": 43.59625,
        "lng": 1.45185
    },
    {
        "id": 161,
        "adresse": "11bis rue Mercié",
        "nom": "emplacement de l'ancien hôtel Duranti",
        "profession_proprietaire": "président",
        "siecle": "19",
        "lat": 43.60155,
        "lng": 1.44685
    },
    {
        "id": 162,
        "adresse": "4 rue Merlane",
        "nom": "hôtel Cassan",
        "profession_proprietaire": "conseiller",
        "siecle": "17",
        "lat": 43.59885,
        "lng": 1.44755
    },
    {
        "id": 163,
        "adresse": "7 rue Merlane",
        "nom": "hôtel de Malenfant ou de Panat",
        "profession_proprietaire": "mage",
        "siecle": "17",
        "lat": 43.59885,
        "lng": 1.44795
    },
    {
        "id": 164,
        "adresse": "8 rue Merlane",
        "nom": "hôtel Sevin-Mansencal",
        "profession_proprietaire": "président",
        "siecle": "16",
        "lat": 43.59865,
        "lng": 1.44775
    },
    {
        "id": 165,
        "adresse": "3 rue Montoulieu-Saint-Jacques",
        "nom": "hôtel Lestang, tour",
        "profession_proprietaire": "évêque",
        "siecle": "16",
        "lat": 43.59845,
        "lng": 1.45055
    },
    {
        "id": 166,
        "adresse": "11 rue Montoulieu-Vélane",
        "nom": "hôtel Descoffres",
        "profession_proprietaire": "trésorier",
        "siecle": "18",
        "lat": 43.59885,
        "lng": 1.44915
    },
    {
        "id": 167,
        "adresse": "8 gde rue Nazareth",
        "nom": "hôtel particulier",
        "profession_proprietaire": "àVoir",
        "siecle": "17",
        "lat": 43.59835,
        "lng": 1.44565
    },
    {
        "id": 168,
        "adresse": "19 gde rue Nazareth",
        "nom": "hôtel Doazan",
        "profession_proprietaire": "avocat",
        "siecle": "18",
        "lat": 43.59785,
        "lng": 1.44635
    },
    {
        "id": 169,
        "adresse": "24 gde rue Nazareth",
        "nom": "hôtel d'Avizard",
        "profession_proprietaire": "enquêtes",
        "siecle": "17",
        "lat": 43.59775,
        "lng": 1.44625
    },
    {
        "id": 170,
        "adresse": "28 gde rue Nazareth",
        "nom": "hôtel Potier-Laterrasse",
        "profession_proprietaire": "prieur",
        "siecle": "16",
        "lat": 43.59755,
        "lng": 1.44645
    },
    {
        "id": 171,
        "adresse": "32 gde rue Nazareth",
        "nom": "hôtel de Ricard, démoli (hôtel de Riquet)",
        "profession_proprietaire": "capitoul",
        "siecle": "17",
        "lat": 43.59735,
        "lng": 1.44655
    },
    {
        "id": 172,
        "adresse": "35 gde rue Nazareth",
        "nom": "hôtel Bauderon-Maussac (Hôtel de Guilhermy)",
        "profession_proprietaire": "conseiller",
        "siecle": "16",
        "lat": 43.59715,
        "lng": 1.44695
    },
    {
        "id": 173,
        "adresse": "37 gde rue Nazareth",
        "nom": "ancien hôtel Baderon-Maussac, disp ?",
        "profession_proprietaire": "conseiller",
        "siecle": "16",
        "lat": 43.59705,
        "lng": 1.44705
    },
    {
        "id": 174,
        "adresse": "8 rue Ozenne",
        "nom": "tour de l'hôtel de Maussac",
        "profession_proprietaire": "conseiller",
        "siecle": "16",
        "lat": 43.59715,
        "lng": 1.44735
    },
    {
        "id": 175,
        "adresse": "40 gde rue Nazareth",
        "nom": "école St-Thomas Acquin (façade hôtel Mansencal)",
        "profession_proprietaire": "ordre",
        "siecle": "16",
        "lat": 43.59695,
        "lng": 1.44695
    },
    {
        "id": 176,
        "adresse": "12-14 rue Ninau",
        "nom": "hôtel Paulo (hôtel Gary)",
        "profession_proprietaire": "comte",
        "siecle": "18",
        "lat": 43.59745,
        "lng": 1.44915
    },
    {
        "id": 177,
        "adresse": "15 rue Ninau",
        "nom": "hôtel d'Ulmo (hôtel de Verdiguier)",
        "profession_proprietaire": "président",
        "siecle": "16",
        "lat": 43.59735,
        "lng": 1.44965
    },
    {
        "id": 178,
        "adresse": "19 rue Ninau",
        "nom": "hôtel de Castagnier d'Auriac (hôtel Lévis-Mirepoix)",
        "profession_proprietaire": "conseiller",
        "siecle": "18",
        "lat": 43.59715,
        "lng": 1.45015
    },
    {
        "id": 179,
        "adresse": "20 rue Ninau",
        "nom": "hôtel Guérard",
        "profession_proprietaire": "capitoul",
        "siecle": "18",
        "lat": 43.59705,
        "lng": 1.44995
    },
    {
        "id": 180,
        "adresse": "2 rue Ozenne",
        "nom": "hôtel Bérenguier Maynier",
        "profession_proprietaire": "lithographe",
        "siecle": "15",
        "lat": 43.59775,
        "lng": 1.44755
    },
    {
        "id": 181,
        "adresse": "4 rue Ozenne",
        "nom": "Hôtel de Puymaurin",
        "profession_proprietaire": "baron",
        "siecle": "17",
        "lat": 43.59755,
        "lng": 1.44745
    },
    {
        "id": 182,
        "adresse": "9 rue Ozenne",
        "nom": "Hôtel Dahus-Tournoer (Hôtel de Roquette)",
        "profession_proprietaire": "capitoul",
        "siecle": "15",
        "lat": 43.59745,
        "lng": 1.44825
    },
    {
        "id": 183,
        "adresse": "10 rue Ozenne",
        "nom": "hôtel Potier-Laterrasse",
        "profession_proprietaire": "prieur",
        "siecle": "16",
        "lat": 43.59725,
        "lng": 1.44745
    },
    {
        "id": 184,
        "adresse": "8bis rue Ozenne",
        "nom": "hôtel de Baderon-Maussac",
        "profession_proprietaire": "conseiller",
        "siecle": "17",
        "lat": 43.59735,
        "lng": 1.44735
    },
    {
        "id": 185,
        "adresse": "4 rue Paradoux",
        "nom": "hôtel Rességuier",
        "profession_proprietaire": "conseiller",
        "siecle": "16",
        "lat": 43.59975,
        "lng": 1.44315
    },
    {
        "id": 186,
        "adresse": "28 rue Paradoux",
        "nom": "hôtel Castaing",
        "profession_proprietaire": "couvreur",
        "siecle": "17",
        "lat": 43.60012,
        "lng": 1.44315
    },
    {
        "id": 187,
        "adresse": "32 rue Paradoux",
        "nom": "hôtel de Michel de Cantuer",
        "profession_proprietaire": "conseiller",
        "siecle": "17",
        "lat": 43.60032,
        "lng": 1.44322
    },
    {
        "id": 188,
        "adresse": "66 rue Pargaminières",
        "nom": "hôtel de Cambolas",
        "profession_proprietaire": "président",
        "siecle": "17",
        "lat": 43.60378,
        "lng": 1.43935
    },
    {
        "id": 189,
        "adresse": "12 place Parlement",
        "nom": "hôtel Chalvet",
        "profession_proprietaire": "président",
        "siecle": "17",
        "lat": 43.59685,
        "lng": 1.44432
    },
    {
        "id": 190,
        "adresse": "7, 8 place Parlement",
        "nom": "Maison Seilhan",
        "profession_proprietaire": "viguier",
        "siecle": "13",
        "lat": 43.59652,
        "lng": 1.44385
    },
    {
        "id": 191,
        "adresse": "1 allées Paul-Feuga",
        "nom": "Hôtel de Seube",
        "profession_proprietaire": "musée",
        "siecle": "20",
        "lat": 43.59385,
        "lng": 1.44395
    },
    {
        "id": 192,
        "adresse": "24 rue Perchepinte",
        "nom": "hôtel de Castelpers",
        "profession_proprietaire": "marquis",
        "siecle": "18",
        "lat": 43.59825,
        "lng": 1.44715
    },
    {
        "id": 193,
        "adresse": "56 rue Périgord",
        "nom": "hôtel Maurand, tour",
        "profession_proprietaire": "marchand",
        "siecle": "12",
        "lat": 43.60635,
        "lng": 1.44285
    },
    {
        "id": 194,
        "adresse": "13 rue Peyras",
        "nom": "hôtel Tiffy-Duclos de Bouillas",
        "profession_proprietaire": "capitoul",
        "siecle": "17",
        "lat": 43.60145,
        "lng": 1.44425
    },
    {
        "id": 195,
        "adresse": "14 rue Peyras",
        "nom": "hôtel Druilhet",
        "profession_proprietaire": "écuiller",
        "siecle": "17",
        "lat": 43.60152,
        "lng": 1.44445
    },
    {
        "id": 196,
        "adresse": "22 rue Peyras",
        "nom": "hôtel Desplats-Sipière",
        "profession_proprietaire": "mortier",
        "siecle": "17",
        "lat": 43.60165,
        "lng": 1.44525
    },
    {
        "id": 197,
        "adresse": "3 rue Peyrolières",
        "nom": "hôtel d'Olmières, tour",
        "profession_proprietaire": "capitoul",
        "siecle": "16",
        "lat": 43.60065,
        "lng": 1.44185
    },
    {
        "id": 198,
        "adresse": "18 rue Peyrolières",
        "nom": "hôtel Ysalguier, tour",
        "profession_proprietaire": "capitoul",
        "siecle": "14",
        "lat": 43.60115,
        "lng": 1.44155
    },
    {
        "id": 199,
        "adresse": "34 rue Peyrolières",
        "nom": "hôtel Labat",
        "profession_proprietaire": "conseiller",
        "siecle": "16",
        "lat": 43.60185,
        "lng": 1.44095
    },
    {
        "id": 200,
        "adresse": "34 rue Peyrolières",
        "nom": "hôtel Lagorrée, tour",
        "profession_proprietaire": "capitoul",
        "siecle": "16",
        "lat": 43.60185,
        "lng": 1.44095
    },
    {
        "id": 201,
        "adresse": "39 rue Peyrolières",
        "nom": "Hôtel de Belbèze",
        "profession_proprietaire": "noble",
        "siecle": "16",
        "lat": 43.60165,
        "lng": 1.44105
    },
    {
        "id": 202,
        "adresse": "15 rue Pharaon",
        "nom": "hôtel Castet",
        "profession_proprietaire": "avocat",
        "siecle": "17",
        "lat": 43.59715,
        "lng": 1.44395
    },
    {
        "id": 203,
        "adresse": "17 rue Pharaon",
        "nom": "hôtel Waroquier (hôtel Foulquier)",
        "profession_proprietaire": "avocat",
        "siecle": "18",
        "lat": 43.59705,
        "lng": 1.44405
    },
    {
        "id": 204,
        "adresse": "21 rue Pharaon",
        "nom": "hôtel de Jérôme Taverne",
        "profession_proprietaire": "capitoul",
        "siecle": "15",
        "lat": 43.59685,
        "lng": 1.44415
    },
    {
        "id": 205,
        "adresse": "21 rue Pharaon",
        "nom": "hôtel Taverne ou Rolle (de Ruffy), tour Noël Rolle",
        "profession_proprietaire": "capitoul",
        "siecle": "15",
        "lat": 43.59685,
        "lng": 1.44415
    },
    {
        "id": 206,
        "adresse": "29 rue Pharaon",
        "nom": "hôtel Vignales",
        "profession_proprietaire": "veuve",
        "siecle": "18",
        "lat": 43.59645,
        "lng": 1.44435
    },
    {
        "id": 207,
        "adresse": "30 rue Pharaon",
        "nom": "hôtel Bétoux",
        "profession_proprietaire": "noble",
        "siecle": "18",
        "lat": 43.59655,
        "lng": 1.44415
    },
    {
        "id": 208,
        "adresse": "35 rue Pharaon",
        "nom": "tour du capitoul Servientes",
        "profession_proprietaire": "capitoul",
        "siecle": "16",
        "lat": 43.59615,
        "lng": 1.44445
    },
    {
        "id": 209,
        "adresse": "42 rue Pharaon",
        "nom": "fontaine, hôtel de Réversac XVII°",
        "profession_proprietaire": "conseiller",
        "siecle": "17",
        "lat": 43.59595,
        "lng": 1.44435
    },
    {
        "id": 210,
        "adresse": "45 rue Pharaon",
        "nom": "hôtel de Lespinasse",
        "profession_proprietaire": "marchand",
        "siecle": "16",
        "lat": 43.59565,
        "lng": 1.44455
    },
    {
        "id": 211,
        "adresse": "47 rue Pharaon",
        "nom": "hôtel de Marvéjol",
        "profession_proprietaire": "marchand",
        "siecle": "17",
        "lat": 43.59545,
        "lng": 1.44455
    },
    {
        "id": 212,
        "adresse": "52 rue Pharaon",
        "nom": "hôtel Pastoureau, tour",
        "profession_proprietaire": "capitoul",
        "siecle": "16",
        "lat": 43.59515,
        "lng": 1.44455
    },
    {
        "id": 213,
        "adresse": "56 rue Pharaon",
        "nom": "hôtel Burta",
        "profession_proprietaire": "conseiller",
        "siecle": "17",
        "lat": 43.59475,
        "lng": 1.44465
    },
    {
        "id": 214,
        "adresse": "13 rue Pleau",
        "nom": "hôtel et tour de Pierre Martin ou de Pierre Besson",
        "profession_proprietaire": "capitoul",
        "siecle": "16",
        "lat": 43.59695,
        "lng": 1.44525
    },
    {
        "id": 215,
        "adresse": "17 rue Pleau",
        "nom": "hôtel Lapleau : inconnu",
        "profession_proprietaire": "sénéchal pr",
        "siecle": "16",
        "lat": 43.59685,
        "lng": 1.44545
    },
    {
        "id": 216,
        "adresse": "5 rue Pomme",
        "nom": "hôtel de Guillaume de Bernuy",
        "profession_proprietaire": "greffier",
        "siecle": "16",
        "lat": 43.60425,
        "lng": 1.44615
    },
    {
        "id": 217,
        "adresse": "28 rue Pomme",
        "nom": "hôtel Saint-Géniès",
        "profession_proprietaire": "procureur",
        "siecle": "17",
        "lat": 43.60265,
        "lng": 1.44565
    },
    {
        "id": 218,
        "adresse": "3 rue Prêtres",
        "nom": "hôtel Roguier",
        "profession_proprietaire": "capitoul",
        "siecle": "16",
        "lat": 43.59855,
        "lng": 1.44495
    },
    {
        "id": 219,
        "adresse": "5 rue Prêtres",
        "nom": "hôtel du Poids des Blés, tourelle",
        "profession_proprietaire": "institut",
        "siecle": "14",
        "lat": 43.59835,
        "lng": 1.44495
    },
    {
        "id": 220,
        "adresse": "4bis rue Prieuré",
        "nom": "hôtel Viguerie",
        "profession_proprietaire": "chirurgien",
        "siecle": "16",
        "lat": 43.60155,
        "lng": 1.44025
    },
    {
        "id": 221,
        "adresse": "20 rue Puits-Clos",
        "nom": "hôtel Darbou ; domicile de Jean Jaurès",
        "profession_proprietaire": "capitoul",
        "siecle": "17",
        "lat": 43.60105,
        "lng": 1.44445
    },
    {
        "id": 222,
        "adresse": "2b, 4 rue Puits-Clos",
        "nom": "hôtel Tiffy – Duclos de Bouillas",
        "profession_proprietaire": "capitoul",
        "siecle": "17",
        "lat": 43.60135,
        "lng": 1.44395
    },
    {
        "id": 223,
        "adresse": "8 rue Puits-Vert",
        "nom": "hôtel Tiffy – Duclos de Bouillas",
        "profession_proprietaire": "avocat",
        "siecle": "17",
        "lat": 43.60195,
        "lng": 1.44355
    },
    {
        "id": 224,
        "adresse": "4 rue Quatre-Billards",
        "nom": "hôtel Comère",
        "profession_proprietaire": "capitoul",
        "siecle": "17",
        "lat": 43.59925,
        "lng": 1.44455
    },
    {
        "id": 225,
        "adresse": "8 rue Regans",
        "nom": "hôtel Boissy",
        "profession_proprietaire": "avocat",
        "siecle": "17",
        "lat": 43.59775,
        "lng": 1.44755
    },
    {
        "id": 226,
        "adresse": "17 rue Rémusat",
        "nom": "Hôtel du Sénéchal",
        "profession_proprietaire": "institut",
        "siecle": "16",
        "lat": 43.60555,
        "lng": 1.44525
    },
    {
        "id": 227,
        "adresse": "7 rue Renforts",
        "nom": "hôtel de Bruée",
        "profession_proprietaire": "noble",
        "siecle": "16",
        "lat": 43.59565,
        "lng": 1.44295
    },
    {
        "id": 228,
        "adresse": "25 rue République",
        "nom": "hôtel Virebent",
        "profession_proprietaire": "statuaire",
        "siecle": "18",
        "lat": 43.59975,
        "lng": 1.43755
    },
    {
        "id": 229,
        "adresse": "3 rue Saint-Antoine du T",
        "nom": "hôtel Caulet XVII°",
        "profession_proprietaire": "conseiller",
        "siecle": "17",
        "lat": 43.60265,
        "lng": 1.44745
    },
    {
        "id": 230,
        "adresse": "47 rue Saint-Antoine du T",
        "nom": "hôtel Palaminy refait en 1843",
        "profession_proprietaire": "conseiller",
        "siecle": "17",
        "lat": 43.60335,
        "lng": 1.44915
    },
    {
        "id": 231,
        "adresse": "3 rue Saint-Bernard",
        "nom": "hôtel, villa, maison Charry",
        "profession_proprietaire": "docteur",
        "siecle": "20",
        "lat": 43.60835,
        "lng": 1.44215
    },
    {
        "id": 232,
        "adresse": "5 rue Saint-Bernard",
        "nom": "hôtel, villa, maison Reygasse",
        "profession_proprietaire": "docteur",
        "siecle": "20",
        "lat": 43.60845,
        "lng": 1.44235
    },
    {
        "id": 233,
        "adresse": "7 rue Saint-Bernard",
        "nom": "hôtel, villa, maison Fédou",
        "profession_proprietaire": "maître",
        "siecle": "20",
        "lat": 43.60855,
        "lng": 1.44255
    },
    {
        "id": 234,
        "adresse": "9 rue Saint-Bernard",
        "nom": "hôtel, villa, maison Sudre",
        "profession_proprietaire": "monsieur",
        "siecle": "20",
        "lat": 43.60865,
        "lng": 1.44275
    },
    {
        "id": 235,
        "adresse": "11 rue Saint-Bernard",
        "nom": "hôtel, villa, maison Pouey",
        "profession_proprietaire": "monsieur",
        "siecle": "20",
        "lat": 43.60875,
        "lng": 1.44295
    },
    {
        "id": 236,
        "adresse": "22 rue Sainte-Anne",
        "nom": "hôtel Bernet",
        "profession_proprietaire": "marchand",
        "siecle": "19",
        "lat": 43.59915,
        "lng": 1.44955
    },
    {
        "id": 237,
        "adresse": "1 place Sainte-Scarbes",
        "nom": "Hôtel Arquata (hôtel Spignola)",
        "profession_proprietaire": "marquis",
        "siecle": "18",
        "lat": 43.59865,
        "lng": 1.44855
    },
    {
        "id": 238,
        "adresse": "1 place Sainte-Scarbes",
        "nom": "hôtel Muriel ou Castelpers",
        "profession_proprietaire": "marquis",
        "siecle": "18",
        "lat": 43.59865,
        "lng": 1.44855
    },
    {
        "id": 239,
        "adresse": "3 place Sainte-Scarbes",
        "nom": "hôtel Courtois",
        "profession_proprietaire": "capitoul",
        "siecle": "17",
        "lat": 43.59845,
        "lng": 1.44875
    },
    {
        "id": 240,
        "adresse": "6 place Sainte-Scarbes",
        "nom": "hôtel Dubourg",
        "profession_proprietaire": "greffier",
        "siecle": "17",
        "lat": 43.59835,
        "lng": 1.44845
    },
    {
        "id": 241,
        "adresse": "4 place Saint-Etienne",
        "nom": "hôtel de Maran",
        "profession_proprietaire": "conseiller",
        "siecle": "18",
        "lat": 43.60015,
        "lng": 1.44785
    },
    {
        "id": 242,
        "adresse": "6 place Saint-Etienne",
        "nom": "hôtel Catel, tour",
        "profession_proprietaire": "capitoul",
        "siecle": "15",
        "lat": 43.60015,
        "lng": 1.44805
    },
    {
        "id": 243,
        "adresse": "11 place Saint-Etienne",
        "nom": "hôtel de Froidour",
        "profession_proprietaire": "eaux forêts",
        "siecle": "18",
        "lat": 43.59975,
        "lng": 1.44885
    },
    {
        "id": 244,
        "adresse": "14 place Saint-Etienne",
        "nom": "hôtel Cambon (hôtel de France)",
        "profession_proprietaire": "président",
        "siecle": "18",
        "lat": 43.59945,
        "lng": 1.44855
    },
    {
        "id": 245,
        "adresse": "11 rue Sainte-Ursule",
        "nom": "hôtel Monserat",
        "profession_proprietaire": "marchand",
        "siecle": "17",
        "lat": 43.60255,
        "lng": 1.44285
    },
    {
        "id": 246,
        "adresse": "12 rue Sainte-Ursule",
        "nom": "hôtel Darbo",
        "profession_proprietaire": "sénéchal cs",
        "siecle": "17",
        "lat": 43.60265,
        "lng": 1.44265
    },
    {
        "id": 247,
        "adresse": "13 rue Sainte-Ursule",
        "nom": "tour Jean de Boysson",
        "profession_proprietaire": "seigneur",
        "siecle": "16",
        "lat": 43.60275,
        "lng": 1.44275
    },
    {
        "id": 248,
        "adresse": "19 place Saint-Georges",
        "nom": "hôtel Lafage",
        "profession_proprietaire": "syndic",
        "siecle": "18",
        "lat": 43.60205,
        "lng": 1.44785
    },
    {
        "id": 249,
        "adresse": "22 place Saint-Georges",
        "nom": "hôtel Bertier",
        "profession_proprietaire": "évêque",
        "siecle": "17",
        "lat": 43.60175,
        "lng": 1.44785
    },
    {
        "id": 250,
        "adresse": "1 rue Saint-Jacques",
        "nom": "hôtel Marmiesse",
        "profession_proprietaire": "avocat",
        "siecle": "15",
        "lat": 43.59895,
        "lng": 1.44855
    },
    {
        "id": 251,
        "adresse": "18 rue Saint-Jacques",
        "nom": "hôtel de Charlary",
        "profession_proprietaire": "conseiller",
        "siecle": "18",
        "lat": 43.59865,
        "lng": 1.45035
    },
    {
        "id": 252,
        "adresse": "20 rue Saint-Jacques",
        "nom": "hôtel Lestang, tour",
        "profession_proprietaire": "président",
        "siecle": "16",
        "lat": 43.59845,
        "lng": 1.45065
    },
    {
        "id": 253,
        "adresse": "3 rue Saint-Rémésy",
        "nom": "hôtel Borassol disp ?",
        "profession_proprietaire": "capitoul",
        "siecle": "16",
        "lat": 43.59775,
        "lng": 1.44095
    },
    {
        "id": 254,
        "adresse": "9 rue Saint-Rémésy",
        "nom": "portail anc. Hôtel Réqui (hôtel Lamotte)",
        "profession_proprietaire": "capitoul",
        "siecle": "17",
        "lat": 43.59735,
        "lng": 1.44115
    },
    {
        "id": 255,
        "adresse": "11 rue Saint-Rémésy",
        "nom": "hôtel Hébrard (hôtel de Claude de Saint-Félix)",
        "profession_proprietaire": "conseiller",
        "siecle": "17",
        "lat": 43.59715,
        "lng": 1.44125
    },
    {
        "id": 256,
        "adresse": "18 rue Saint-Rémésy",
        "nom": "hôtel d'Aigna (ou Eygna)",
        "profession_proprietaire": "noble",
        "siecle": "18",
        "lat": 43.59725,
        "lng": 1.44145
    },
    {
        "id": 257,
        "adresse": "28 rue Saint-Rémésy",
        "nom": "hôtel Roguier",
        "profession_proprietaire": "avocat",
        "siecle": "16",
        "lat": 43.59665,
        "lng": 1.44175
    },
    {
        "id": 258,
        "adresse": "14 rue Saint-Rome",
        "nom": "tour de Jean Bolle",
        "profession_proprietaire": "orfèvre",
        "siecle": "16",
        "lat": 43.60195,
        "lng": 1.44315
    },
    {
        "id": 259,
        "adresse": "21 rue Saint-Rome",
        "nom": "hôtel de Comynihan",
        "profession_proprietaire": "conseiller",
        "siecle": "18",
        "lat": 43.60225,
        "lng": 1.44335
    },
    {
        "id": 260,
        "adresse": "30 rue Saint-Rome",
        "nom": "Tour Roguier",
        "profession_proprietaire": "capitoul",
        "siecle": "16",
        "lat": 43.60265,
        "lng": 1.44315
    },
    {
        "id": 261,
        "adresse": "39 rue Saint-Rome",
        "nom": "maison Auger-Ferrier",
        "profession_proprietaire": "imprimeur",
        "siecle": "16",
        "lat": 43.60305,
        "lng": 1.44355
    },
    {
        "id": 262,
        "adresse": "2, 4 rue Saint-Rome",
        "nom": "tour et hôtel de Serta",
        "profession_proprietaire": "capitoul",
        "siecle": "15",
        "lat": 43.60145,
        "lng": 1.44345
    },
    {
        "id": 263,
        "adresse": "1 & 3 place Saint-Sernin",
        "nom": "St Sernin hôtel Dubarry : 1 & 3",
        "profession_proprietaire": "capitaine",
        "siecle": "18",
        "lat": 43.60745,
        "lng": 1.44125
    },
    {
        "id": 264,
        "adresse": "1 place Salin",
        "nom": "hôtel de la Monnaie : autour rue d'Azes",
        "profession_proprietaire": "institut",
        "siecle": "13",
        "lat": 43.59565,
        "lng": 1.44345
    },
    {
        "id": 265,
        "adresse": "5 rue Sénéchal",
        "nom": "hôtel particulier",
        "profession_proprietaire": "àVoir",
        "siecle": "18",
        "lat": 43.60665,
        "lng": 1.44365
    },
    {
        "id": 266,
        "adresse": "9 rue Sénéchal",
        "nom": "hôtel particulier",
        "profession_proprietaire": "àVoir",
        "siecle": "18",
        "lat": 43.60675,
        "lng": 1.44355
    },
    {
        "id": 267,
        "adresse": "11 rue Sénéchal",
        "nom": "hôtel particulier",
        "profession_proprietaire": "àVoir",
        "siecle": "17",
        "lat": 43.60685,
        "lng": 1.44345
    },
    {
        "id": 268,
        "adresse": "6 rue Sesquières",
        "nom": "hôtel Davisard",
        "profession_proprietaire": "marquis",
        "siecle": "16",
        "lat": 43.59765,
        "lng": 1.44545
    },
    {
        "id": 269,
        "adresse": "52 bd Strasbourg",
        "nom": "hôtel Baylet",
        "profession_proprietaire": "entrepreneur",
        "siecle": "19",
        "lat": 43.60745,
        "lng": 1.44685
    },
    {
        "id": 270,
        "adresse": "76 bd Strasbourg",
        "nom": "hôtel Calvet",
        "profession_proprietaire": "propriétaire",
        "siecle": "20",
        "lat": 43.60885,
        "lng": 1.44645
    },
    {
        "id": 271,
        "adresse": "68, 72 bd Strasbourg",
        "nom": "hôtel Pauilhac",
        "profession_proprietaire": "industriel",
        "siecle": "19",
        "lat": 43.60835,
        "lng": 1.44655
    },
    {
        "id": 272,
        "adresse": "4 rue Tabac",
        "nom": "hôtel d'Olmières",
        "profession_proprietaire": "capitoul",
        "siecle": "16",
        "lat": 43.60335,
        "lng": 1.43725
    },
    {
        "id": 273,
        "adresse": "8 rue Taur",
        "nom": "hôtel d'Aymès",
        "profession_proprietaire": "capitoul",
        "siecle": "16",
        "lat": 43.60455,
        "lng": 1.44265
    },
    {
        "id": 274,
        "adresse": "38 rue Taur",
        "nom": "hôtel Mazzoli",
        "profession_proprietaire": "seigneur",
        "siecle": "19",
        "lat": 43.60595,
        "lng": 1.44185
    },
    {
        "id": 275,
        "adresse": "56 rue Taur",
        "nom": "tour et hôtel Maurand",
        "profession_proprietaire": "marchand",
        "siecle": "12",
        "lat": 43.60655,
        "lng": 1.44235
    },
    {
        "id": 276,
        "adresse": "65 rue Taur",
        "nom": "hôtel de Caylus",
        "profession_proprietaire": "conseiller",
        "siecle": "18",
        "lat": 43.60725,
        "lng": 1.44125
    },
    {
        "id": 277,
        "adresse": "62, 64 rue Taur",
        "nom": "hôtel de Lassus",
        "profession_proprietaire": "seigneur",
        "siecle": "17",
        "lat": 43.60715,
        "lng": 1.44205
    },
    {
        "id": 278,
        "adresse": "2 rue Temponnières",
        "nom": "hôtel Ricardy",
        "profession_proprietaire": "marchand",
        "siecle": "17",
        "lat": 43.60155,
        "lng": 1.44315
    },
    {
        "id": 279,
        "adresse": "7 rue Temponnières",
        "nom": "hôtel de Baynaguet, tour",
        "profession_proprietaire": "capitoul",
        "siecle": "16",
        "lat": 43.60185,
        "lng": 1.44245
    },
    {
        "id": 280,
        "adresse": "7 rue Temponnières",
        "nom": "Hôtel de la Belle-Paule, Paule de Viguier",
        "profession_proprietaire": "épouse",
        "siecle": "16",
        "lat": 43.60185,
        "lng": 1.44245
    },
    {
        "id": 281,
        "adresse": "10 rue Temponnières",
        "nom": "tour Vinhas (hôtel Vinhas)",
        "profession_proprietaire": "capitoul",
        "siecle": "13",
        "lat": 43.60165,
        "lng": 1.44255
    },
    {
        "id": 282,
        "adresse": "5 rue Tolosane",
        "nom": "hôtel particulier",
        "profession_proprietaire": "àVoir",
        "siecle": "17",
        "lat": 43.59885,
        "lng": 1.44685
    },
    {
        "id": 283,
        "adresse": "6 rue Tolosane",
        "nom": "hôtel Candie de Saint-Simon",
        "profession_proprietaire": "noble",
        "siecle": "18",
        "lat": 43.59895,
        "lng": 1.44655
    },
    {
        "id": 284,
        "adresse": "7 rue Tolosane",
        "nom": "hôtel Ramondy",
        "profession_proprietaire": "aides",
        "siecle": "18",
        "lat": 43.59885,
        "lng": 1.44685
    },
    {
        "id": 285,
        "adresse": "10 rue Tolosane",
        "nom": "immeuble, dit hôtel Dambes ou Viguerie.",
        "profession_proprietaire": "noble",
        "siecle": "18",
        "lat": 43.59865,
        "lng": 1.44675
    },
    {
        "id": 286,
        "adresse": "14 rue Tolosane",
        "nom": "hôtel Foucaud",
        "profession_proprietaire": "conseiller",
        "siecle": "17",
        "lat": 43.59835,
        "lng": 1.44695
    },
    {
        "id": 287,
        "adresse": "2 & 4 rue Tolosane",
        "nom": "hôtel de Campistron : 2 & 4",
        "profession_proprietaire": "avocat",
        "siecle": "17",
        "lat": 43.59915,
        "lng": 1.44645
    },
    {
        "id": 288,
        "adresse": "9 rue Tourneurs",
        "nom": "hôtel de Pons Imbert, tour",
        "profession_proprietaire": "capitoul",
        "siecle": "15",
        "lat": 43.60015,
        "lng": 1.44445
    },
    {
        "id": 289,
        "adresse": "15 rue Tourneurs",
        "nom": "hôtel Ramondi",
        "profession_proprietaire": "capitoul",
        "siecle": "17",
        "lat": 43.60065,
        "lng": 1.44425
    },
    {
        "id": 290,
        "adresse": "43 rue Tourneurs",
        "nom": "hôtel Desplats",
        "profession_proprietaire": "conseiller",
        "siecle": "17",
        "lat": 43.60195,
        "lng": 1.44405
    },
    {
        "id": 291,
        "adresse": "45 rue Tourneurs",
        "nom": "hôtel Desplats, tour",
        "profession_proprietaire": "conseiller",
        "siecle": "17",
        "lat": 43.60215,
        "lng": 1.44405
    },
    {
        "id": 292,
        "adresse": "49 rue Trente-Six-Ponts",
        "nom": "maison Ferrier ou enclos Bénech",
        "profession_proprietaire": "capitoul",
        "siecle": "16",
        "lat": 43.59135,
        "lng": 1.44855
    },
    {
        "id": 293,
        "adresse": "6 rue Trinité",
        "nom": "hôtel particulier",
        "profession_proprietaire": "àVoir",
        "siecle": "15",
        "lat": 43.59985,
        "lng": 1.44455
    },
    {
        "id": 294,
        "adresse": "19 rue Trinité",
        "nom": "tour du capitoul Pons Imbert (Tour Del Fossat)",
        "profession_proprietaire": "capitoul",
        "siecle": "16",
        "lat": 43.59985,
        "lng": 1.44555
    },
    {
        "id": 295,
        "adresse": "9 rue Tripière",
        "nom": "hôtel Comère, cour, tour",
        "profession_proprietaire": "capitoul",
        "siecle": "17",
        "lat": 43.60105,
        "lng": 1.44365
    },
    {
        "id": 296,
        "adresse": "12 & 14 rue Tripière",
        "nom": "hôtel Virazel : 12 & 14",
        "profession_proprietaire": "capitoul",
        "siecle": "17",
        "lat": 43.60125,
        "lng": 1.44355
    },
    {
        "id": 297,
        "adresse": "5 rue Vélane",
        "nom": "hôtel de Sacère-Murat",
        "profession_proprietaire": "noble",
        "siecle": "18",
        "lat": 43.59835,
        "lng": 1.44745
    },
    {
        "id": 298,
        "adresse": "10 rue Vélane",
        "nom": "hôtel particulier",
        "profession_proprietaire": "àVoir",
        "siecle": "17",
        "lat": 43.59825,
        "lng": 1.44755
    },
    {
        "id": 299,
        "adresse": "12 rue Vélane",
        "nom": "hôtel de Jossé-Decars",
        "profession_proprietaire": "capitoul",
        "siecle": "18",
        "lat": 43.59815,
        "lng": 1.44765
    },
    {
        "id": 300,
        "adresse": "13 rue Vélane",
        "nom": "Hôtel de Jossé-Lauvreins",
        "profession_proprietaire": "capitoul",
        "siecle": "17",
        "lat": 43.59805,
        "lng": 1.44785
    },
    {
        "id": 301,
        "adresse": "14 rue Vélane",
        "nom": "hôtel de Puymirol",
        "profession_proprietaire": "noble",
        "siecle": "18",
        "lat": 43.59795,
        "lng": 1.44785
    },
    {
        "id": 302,
        "adresse": "16 rue Vélane",
        "nom": "hôtel Reich de Pennautier",
        "profession_proprietaire": "conseiller",
        "siecle": "17",
        "lat": 43.59785,
        "lng": 1.44805
    }
]