import { NextResponse } from 'next/server';

export async function GET() {
  const data = {
    "classement_pib_france": [
      { "rang": 1, "ville": "Paris (Grand Paris)", "lat": 48.8566, "lng": 2.3522, "pib_mds_euros": "~740", "secteurs_cles": "Finance, Luxe, Sièges sociaux" },
      { "rang": 2, "ville": "Marseille-Aix", "lat": 43.2965, "lng": 5.3698, "pib_mds_euros": "~125", "secteurs_cles": "Logistique portuaire, Santé" },
      { "rang": 3, "ville": "Lyon", "lat": 45.7640, "lng": 4.8357, "pib_mds_euros": "~98", "secteurs_cles": "Chimie, Pharmacie, Banques" },
      { "rang": 4, "ville": "Lille", "lat": 50.6292, "lng": 3.0573, "pib_mds_euros": "~86", "secteurs_cles": "Commerce, Tertiaire, Industrie" },
      { "rang": 5, "ville": "Bordeaux", "lat": 44.8378, "lng": -0.5792, "pib_mds_euros": "~61", "secteurs_cles": "Vin, Numérique, Aéronautique" },
      { "rang": 6, "ville": "Toulouse", "lat": 43.6047, "lng": 1.4442, "pib_mds_euros": "~59", "secteurs_cles": "Aéronautique (Airbus), Spatial" },
      { "rang": 7, "ville": "Nantes", "lat": 47.2184, "lng": -1.5536, "pib_mds_euros": "~52", "secteurs_cles": "Agroalimentaire, Naval, Numérique" },
      { "rang": 8, "ville": "Nice-Côte d'Azur", "lat": 43.7102, "lng": 7.2620, "pib_mds_euros": "~50", "secteurs_cles": "Tourisme, Tech (Sophia Antipolis), Parfumerie" },
      { "rang": 9, "ville": "Strasbourg", "lat": 48.5734, "lng": 7.7521, "pib_mds_euros": "~42", "secteurs_cles": "Institutions européennes, Pharma, Industrie" },
      { "rang": 10, "ville": "Rennes", "lat": 48.1173, "lng": -1.6778, "pib_mds_euros": "~38", "secteurs_cles": "Automobile (Stellantis), Cyber, Numérique" },
      { "rang": 11, "ville": "Montpellier", "lat": 43.6108, "lng": 3.8767, "pib_mds_euros": "~35", "secteurs_cles": "Santé, Numérique, Enseignement supérieur" },
      { "rang": 12, "ville": "Grenoble", "lat": 45.1885, "lng": 5.7245, "pib_mds_euros": "~32", "secteurs_cles": "Recherche scientifique, Microélectronique (STMicro)" },
      { "rang": 13, "ville": "Rouen", "lat": 49.4432, "lng": 1.0999, "pib_mds_euros": "~30", "secteurs_cles": "Portuaire, Chimie, Automobile" },
      { "rang": 14, "ville": "Toulon", "lat": 43.1242, "lng": 5.9280, "pib_mds_euros": "~28", "secteurs_cles": "Défense (Base navale), Naval Group, Tourisme" },
      { "rang": 15, "ville": "Saint-Étienne", "lat": 45.4397, "lng": 4.3872, "pib_mds_euros": "~24", "secteurs_cles": "Optique, Design, Mécanique de précision" },
      { "rang": 16, "ville": "Tours", "lat": 47.3941, "lng": 0.6848, "pib_mds_euros": "~22", "secteurs_cles": "Pharmacie, Logistique, Services" },
      { "rang": 17, "ville": "Nancy", "lat": 48.6921, "lng": 6.1844, "pib_mds_euros": "~20,5", "secteurs_cles": "Santé (CHU majeur), Enseignement, Banques" },
      { "rang": 18, "ville": "Reims", "lat": 49.2583, "lng": 4.0317, "pib_mds_euros": "~20,1", "secteurs_cles": "Champagne (Luxe), Agro-industrie, Logistique" },
      { "rang": 19, "ville": "Angers", "lat": 47.4784, "lng": -0.5632, "pib_mds_euros": "~19,5", "secteurs_cles": "Électronique (IoT), Végétal spécialisé, Assurances" },
      { "rang": 20, "ville": "Clermont-Ferrand", "lat": 45.7772, "lng": 3.0870, "pib_mds_euros": "~19,2", "secteurs_cles": "Industrie (Michelin), Santé, Recherche" },
      { "rang": 21, "ville": "Brest", "lat": 48.3904, "lng": -4.4861, "pib_mds_euros": "~18,5", "secteurs_cles": "Économie maritime, Naval, Défense" },
      { "rang": 22, "ville": "Dijon", "lat": 47.3220, "lng": 5.0415, "pib_mds_euros": "~18,1", "secteurs_cles": "Agroalimentaire (Viticulture), Santé, Pharma" },
      { "rang": 23, "ville": "Le Mans", "lat": 48.0061, "lng": 0.1996, "pib_mds_euros": "~17,8", "secteurs_cles": "Assurances (MMA), Automobile, Logistique" },
      { "rang": 24, "ville": "Amiens", "lat": 49.8941, "lng": 2.2957, "pib_mds_euros": "~17,2", "secteurs_cles": "Industrie (Procter & Gamble), Santé, Services" },
      { "rang": 25, "ville": "Limoges", "lat": 45.8336, "lng": 1.2611, "pib_mds_euros": "~16,8", "secteurs_cles": "Céramique technique, Santé, Luxe (Cuir)" },
      { "rang": 26, "ville": "Metz", "lat": 49.1193, "lng": 6.1757, "pib_mds_euros": "~16,5", "secteurs_cles": "Logistique, Commerce transfrontalier, Industrie" },
      { "rang": 27, "ville": "Besançon", "lat": 47.2378, "lng": 6.0241, "pib_mds_euros": "~16,2", "secteurs_cles": "Microtechniques, Horlogerie, Santé" },
      { "rang": 28, "ville": "Orléans", "lat": 47.9030, "lng": 1.9083, "pib_mds_euros": "~16,0", "secteurs_cles": "Cosmétique (Cosmetic Valley), Logistique" },
      { "rang": 29, "ville": "Perpignan", "lat": 42.6887, "lng": 2.8948, "pib_mds_euros": "~15,8", "secteurs_cles": "Logistique (Saint-Charles), Tourisme, Agri" },
      { "rang": 30, "ville": "Caen", "lat": 49.1829, "lng": -0.3708, "pib_mds_euros": "~15,5", "secteurs_cles": "Agroalimentaire, Nautisme, Services" },
      { "rang": 31, "ville": "Annecy", "lat": 45.8992, "lng": 6.1294, "pib_mds_euros": "~15,2", "secteurs_cles": "Mécatronique, Industrie du sport (Outdoor), Tourisme" },
      { "rang": 32, "ville": "Pau", "lat": 43.2951, "lng": -0.3708, "pib_mds_euros": "~14,8", "secteurs_cles": "Énergie (TotalEnergies), Aéronautique (Safran), Chimie" },
      { "rang": 33, "ville": "Lorient", "lat": 47.7483, "lng": -3.3702, "pib_mds_euros": "~14,2", "secteurs_cles": "Construction navale, Pêche, Course au large" },
      { "rang": 34, "ville": "Poitiers", "lat": 46.5802, "lng": 0.3404, "pib_mds_euros": "~13,9", "secteurs_cles": "Administration, Services, Futuroscope" },
      { "rang": 35, "ville": "La Rochelle", "lat": 46.1591, "lng": -1.1511, "pib_mds_euros": "~13,5", "secteurs_cles": "Nautisme, Tourisme, Logistique portuaire" },
      { "rang": 36, "ville": "Nîmes", "lat": 43.8367, "lng": 4.3601, "pib_mds_euros": "~13,2", "secteurs_cles": "Logistique, Agriculture, Tourisme" },
      { "rang": 37, "ville": "Avignon", "lat": 43.9483, "lng": 4.8031, "pib_mds_euros": "~12,8", "secteurs_cles": "Spectacle vivant, Agroalimentaire, Logistique" },
      { "rang": 38, "ville": "Troyes", "lat": 48.2973, "lng": 4.0744, "pib_mds_euros": "~12,5", "secteurs_cles": "Textile (Marques de luxe), Logistique, Commerce" },
      { "rang": 39, "ville": "Valenciennes", "lat": 50.3570, "lng": 3.5233, "pib_mds_euros": "~12,2", "secteurs_cles": "Ferroviaire (Alstom), Automobile (Toyota)" },
      { "rang": 40, "ville": "Bayonne", "lat": 43.4929, "lng": -1.4748, "pib_mds_euros": "~11,9", "secteurs_cles": "Commerce, Industrie (Aciérie), Tourisme" },
      { "rang": 41, "ville": "Mulhouse", "lat": 47.7495, "lng": 7.3399, "pib_mds_euros": "~11,5", "secteurs_cles": "Automobile (Stellantis), Mécanique, Textile" },
      { "rang": 42, "ville": "Valence", "lat": 44.9334, "lng": 4.8924, "pib_mds_euros": "~11,2", "secteurs_cles": "Logistique (Vallée du Rhône), Agroalimentaire" },
      { "rang": 43, "ville": "Le Havre", "lat": 49.4944, "lng": 0.1079, "pib_mds_euros": "~10,8", "secteurs_cles": "Portuaire (1er port conteneurs), Pétrochimie" },
      { "rang": 44, "ville": "Béziers", "lat": 43.3442, "lng": 3.2158, "pib_mds_euros": "~10,2", "secteurs_cles": "Tourisme, Viticulture, Logistique" },
      { "rang": 45, "ville": "Chambéry", "lat": 45.5646, "lng": 5.9178, "pib_mds_euros": "~9,2", "secteurs_cles": "Tourisme de montagne, Outdoor, Services" },
      { "rang": 46, "ville": "Montauban", "lat": 44.0171, "lng": 1.3550, "pib_mds_euros": "~8,9", "secteurs_cles": "Logistique, Agroalimentaire, Défense" },
      { "rang": 47, "ville": "Albi", "lat": 43.9261, "lng": 2.1464, "pib_mds_euros": "~8,5", "secteurs_cles": "Verrerie, Tourisme (UNESCO), Innovation" },
      { "rang": 48, "ville": "Dunkerque", "lat": 51.0344, "lng": 2.3768, "pib_mds_euros": "~8,4", "secteurs_cles": "Énergie (Centrale nucléaire), Portuaire, Sidérurgie" },
      { "rang": 49, "ville": "Bourges", "lat": 47.0810, "lng": 2.3987, "pib_mds_euros": "~8,2", "secteurs_cles": "Défense (MBDA, Nexter), Aéronautique" },
      { "rang": 50, "ville": "Cherbourg", "lat": 49.6337, "lng": -1.6221, "pib_mds_euros": "~8,0", "secteurs_cles": "Énergie nucléaire (Orano), Naval (Sous-marins)" },
      { "rang": 51, "ville": "Vannes", "lat": 47.6582, "lng": -2.7608, "pib_mds_euros": "~7,8", "secteurs_cles": "Nautisme, Agroalimentaire, Numérique" },
      { "rang": 52, "ville": "Quimper", "lat": 47.9975, "lng": -4.0979, "pib_mds_euros": "~7,6", "secteurs_cles": "Agroalimentaire, Textile (Armor Lux), Services" },
      { "rang": 53, "ville": "Agen", "lat": 44.2031, "lng": 0.6167, "pib_mds_euros": "~7,3", "secteurs_cles": "Agroalimentaire (Upsa), Logistique, Santé" },
      { "rang": 54, "ville": "Bourg-en-Bresse", "lat": 46.2052, "lng": 5.2255, "pib_mds_euros": "~7,1", "secteurs_cles": "Industrie lourde (Renault Trucks), Carrosserie" },
      { "rang": 55, "ville": "Mont-de-Marsan", "lat": 43.8902, "lng": -0.5011, "pib_mds_euros": "~6,9", "secteurs_cles": "Défense (Base aérienne), Bois/Forêt, Agro" },
      { "rang": 56, "ville": "Roanne", "lat": 46.0367, "lng": 4.0744, "pib_mds_euros": "~6,8", "secteurs_cles": "Textile, Mécanique (Nexter), Agroalimentaire" },
      { "rang": 57, "ville": "Tarbes", "lat": 43.2329, "lng": 0.0727, "pib_mds_euros": "~6,6", "secteurs_cles": "Aéronautique (Daher), Ferroviaire (Alstom)" },
      { "rang": 58, "ville": "Belfort", "lat": 47.6397, "lng": 6.8638, "pib_mds_euros": "~6,4", "secteurs_cles": "Énergie (GE), Ferroviaire (Alstom)" },
      { "rang": 59, "ville": "Niort", "lat": 46.3237, "lng": -0.4648, "pib_mds_euros": "~6,3", "secteurs_cles": "Sièges d'assurances (MAIF, MACIF)" },
      { "rang": 60, "ville": "Brive-la-Gaillarde", "lat": 45.1589, "lng": 1.5321, "pib_mds_euros": "~6,1", "secteurs_cles": "Logistique, Agroalimentaire, Cosmétique" },
      { "rang": 61, "ville": "Châteauroux", "lat": 46.8116, "lng": 1.6868, "pib_mds_euros": "~5,9", "secteurs_cles": "Logistique aéroportuaire, Industrie" },
      { "rang": 62, "ville": "La Roche-sur-Yon", "lat": 46.6705, "lng": -1.4265, "pib_mds_euros": "~5,7", "secteurs_cles": "Industrie (Michelin, Beneteau), Services" },
      { "rang": 63, "ville": "Saint-Brieuc", "lat": 48.5141, "lng": -2.7658, "pib_mds_euros": "~5,6", "secteurs_cles": "Pêche, Agroalimentaire, Services" },
      { "rang": 64, "ville": "Colmar", "lat": 48.0794, "lng": 7.3585, "pib_mds_euros": "~5,5", "secteurs_cles": "Tourisme, Viticulture, Industrie mécanique" },
      { "rang": 65, "ville": "Gap", "lat": 44.5596, "lng": 6.0785, "pib_mds_euros": "~5,3", "secteurs_cles": "Tourisme de montagne, Administration, Services" },
      { "rang": 66, "ville": "Chartres", "lat": 48.4439, "lng": 1.4886, "pib_mds_euros": "~5,2", "secteurs_cles": "Cosmétique (Cosmetic Valley), Pharmacie" },
      { "rang": 67, "ville": "Angoulême", "lat": 45.6484, "lng": 0.1562, "pib_mds_euros": "~5,1", "secteurs_cles": "Image/Animation, Industrie (Saft, Papier)" },
      { "rang": 68, "ville": "Arras", "lat": 50.2910, "lng": 2.7775, "pib_mds_euros": "~4,9", "secteurs_cles": "Services, Agroalimentaire, Logistique" },
      { "rang": 69, "ville": "Laval", "lat": 48.0726, "lng": -0.7725, "pib_mds_euros": "~4,8", "secteurs_cles": "Lactalis (Lait), Réalité Virtuelle, Industrie" },
      { "rang": 70, "ville": "Beauvais", "lat": 49.4294, "lng": 2.0807, "pib_mds_euros": "~4,7", "secteurs_cles": "Industrie (Massey Ferguson), Aéroport (Low-cost)" },
      { "rang": 71, "ville": "Alençon", "lat": 48.4308, "lng": 0.0911, "pib_mds_euros": "~4,5", "secteurs_cles": "Plasturgie, Cosmétique, Services" },
      { "rang": 72, "ville": "Saint-Quentin", "lat": 49.8471, "lng": 3.2874, "pib_mds_euros": "~4,4", "secteurs_cles": "Logistique, Industrie textile/mécanique" },
      { "rang": 73, "ville": "Evreux", "lat": 49.0241, "lng": 1.1508, "pib_mds_euros": "~4,3", "secteurs_cles": "Pharmacie, Base aérienne, Cosmétique" },
      { "rang": 74, "ville": "Carcassonne", "lat": 43.2122, "lng": 2.3537, "pib_mds_euros": "~4,2", "secteurs_cles": "Tourisme (UNESCO), Vin, Commerce" },
      { "rang": 75, "ville": "Montélimar", "lat": 44.5569, "lng": 4.7495, "pib_mds_euros": "~4,1", "secteurs_cles": "Nougat (Agro), Nucléaire (proximité Tricastin)" },
      { "rang": 76, "ville": "Vichy", "lat": 46.1274, "lng": 3.4231, "pib_mds_euros": "~4,0", "secteurs_cles": "Cosmétique (L'Oréal), Santé/Thermalisme" },
      { "rang": 77, "ville": "Mâcon", "lat": 46.3051, "lng": 4.8277, "pib_mds_euros": "~3,9", "secteurs_cles": "Viticulture, Logistique (axe Saône)" },
      { "rang": 78, "ville": "Bastia", "lat": 42.6976, "lng": 9.4509, "pib_mds_euros": "~3,8", "secteurs_cles": "Portuaire, Tourisme, Commerce" },
      { "rang": 79, "ville": "Nevers", "lat": 46.9933, "lng": 3.1601, "pib_mds_euros": "~3,6", "secteurs_cles": "Automobile (Magny-Cours), Métallurgie" },
      { "rang": 80, "ville": "Aurillac", "lat": 44.9261, "lng": 2.4402, "pib_mds_euros": "~3,5", "secteurs_cles": "Agroalimentaire (Fromage), Parapluie, Santé" },
      { "rang": 81, "ville": "Périgueux", "lat": 45.1839, "lng": 0.7225, "pib_mds_euros": "~3,4", "secteurs_cles": "Tourisme, Agroalimentaire (Foie gras), Services" },
      { "rang": 82, "ville": "Rodez", "lat": 44.3516, "lng": 2.5735, "pib_mds_euros": "~3,3", "secteurs_cles": "Industrie (Bosch), Agroalimentaire, Santé" },
      { "rang": 83, "ville": "Charleville-Mézières", "lat": 49.7719, "lng": 4.7161, "pib_mds_euros": "~3,2", "secteurs_cles": "Métallurgie, Industrie mécanique" },
      { "rang": 84, "ville": "Auxerre", "lat": 47.7982, "lng": 3.5731, "pib_mds_euros": "~3,1", "secteurs_cles": "Viticulture (Chablis), Logistique, Industrie" },
      { "rang": 85, "ville": "Chalon-sur-Saône", "lat": 46.7820, "lng": 4.8539, "pib_mds_euros": "~3,0", "secteurs_cles": "Nucléaire (Framatome), Logistique, Vin" },
      { "rang": 86, "ville": "Blois", "lat": 47.5861, "lng": 1.3360, "pib_mds_euros": "~2,8", "secteurs_cles": "Pharmacie, Tourisme (Châteaux), Automobile" },
      { "rang": 87, "ville": "Sète", "lat": 43.4028, "lng": 3.6966, "pib_mds_euros": "~2,7", "secteurs_cles": "Portuaire, Pêche, Tourisme" },
      { "rang": 88, "ville": "Douai", "lat": 50.3679, "lng": 3.0812, "pib_mds_euros": "~2,6", "secteurs_cles": "Industrie automobile (Renault), Logistique" },
      { "rang": 89, "ville": "Chaumont", "lat": 48.1100, "lng": 5.1417, "pib_mds_euros": "~2,3", "secteurs_cles": "Haute technologie médicale (Prothèses)" },
      { "rang": 90, "ville": "Vierzon", "lat": 47.2215, "lng": 2.0683, "pib_mds_euros": "~2,2", "secteurs_cles": "Logistique, Industrie mécanique" },
      { "rang": 91, "ville": "Saint-Nazaire", "lat": 47.2736, "lng": -2.2138, "pib_mds_euros": "~2,1", "secteurs_cles": "Chantiers navals, Aéronautique (Airbus)" },
      { "rang": 92, "ville": "Ajaccio", "lat": 41.9272, "lng": 8.7346, "pib_mds_euros": "~2,0", "secteurs_cles": "Tourisme, Administration, Commerce portuaire" },
      { "rang": 93, "ville": "Cholet", "lat": 47.0600, "lng": -0.8800, "pib_mds_euros": "~1,9", "secteurs_cles": "Logistique, Textile, Industrie (Michelin)" },
      { "rang": 94, "ville": "Montluçon", "lat": 46.3400, "lng": 2.6000, "pib_mds_euros": "~1,8", "secteurs_cles": "Pneumatiques (Dunlop), Mécanique" },
      { "rang": 95, "ville": "Vannes", "lat": 47.6582, "lng": -2.7608, "pib_mds_euros": "~1,7", "secteurs_cles": "Nautisme, Agroalimentaire, Numérique" },
      { "rang": 96, "ville": "Bourg-en-Bresse", "lat": 46.2052, "lng": 5.2255, "pib_mds_euros": "~1,6", "secteurs_cles": "Industrie lourde (Renault Trucks), Carrosserie" },
      { "rang": 97, "ville": "Digne-les-Bains", "lat": 44.0922, "lng": 6.2361, "pib_mds_euros": "~1,5", "secteurs_cles": "Administration, Thermalisme, Tourisme" },
      { "rang": 98, "ville": "Cahors", "lat": 44.4475, "lng": 1.4419, "pib_mds_euros": "~1,4", "secteurs_cles": "Viticulture (Vin de Cahors), Tourisme" },
      { "rang": 99, "ville": "Mende", "lat": 44.5181, "lng": 3.5000, "pib_mds_euros": "~1,3", "secteurs_cles": "Bois, Services de proximité, Administration" },
      { "rang": 100, "ville": "Guéret", "lat": 46.1714, "lng": 1.8711, "pib_mds_euros": "~1,2", "secteurs_cles": "Élevage, Services, Santé" }
    ]
  };

  return NextResponse.json(data);
}
